{"meta":{"code":200,"requestId":"6192a1947160f92eb4760eb3"},"response":{"suggestedFilters":{"header":"Tap to show:","filters":[{"name":"Open now","key":"openNow"}]},"suggestedRadius":1624,"headerLocation":"Current map view","headerFullLocation":"Current map view","headerLocationGranularity":"unknown","query":"coffee","totalResults":105,"suggestedBounds":{"ne":{"lat":50.835807161433,"lng":-0.13203584052396544},"sw":{"lat":50.82218759611032,"lng":-0.17331134899672557}},"groups":[{"type":"Recommended Places","name":"recommended","items":[{"reasons":{"count":0,"items":[{"summary":"This spot is popular","type":"general","reasonName":"globalInteractionReason"}]},"venue":{"id":"586e843d06f1a3416877678f","name":"The Flour Pot","location":{"address":"141 Dyke Rd","lat":50.83148540190636,"lng":-0.147894670608439,"labeledLatLngs":[{"label":"display","lat":50.83148540190636,"lng":-0.147894670608439}],"distance":596,"postalCode":"BN3 1TJ","cc":"GB","city":"Brighton","state":"East Sussex","country":"United Kingdom","formattedAddress":["141 Dyke Rd","Brighton","East Sussex","BN3 1TJ","United Kingdom"]},"categories":[{"id":"4bf58dd8d48988d16a941735","name":"Bakery","pluralName":"Bakeries","shortName":"Bakery","icon":{"prefix":"https:\/\/ss3.4sqi.net\/img\/categories_v2\/food\/bakery_","suffix":".png"},"primary":true}],"photos":{"count":0,"groups":[]}},"referralId":"e-5-586e843d06f1a3416877678f-0"},{"reasons":{"count":0,"items":[{"summary":"This spot is popular","type":"general","reasonName":"globalInteractionReason"}]},"venue":{"id":"4b6820adf964a52050682be3","name":"Joe's Cafe","location":{"address":"24 Upper Hamilton Rd","lat":50.835188090281974,"lng":-0.14844964532333635,"labeledLatLngs":[{"label":"display","lat":50.835188090281974,"lng":-0.14844964532333635}],"distance":184,"postalCode":"BN1 5DF","cc":"GB","neighborhood":"Preston Park","city":"Brighton","state":"East Sussex","country":"United Kingdom","formattedAddress":["24 Upper Hamilton Rd","Brighton","East Sussex","BN1 5DF","United Kingdom"]},"categories":[{"id":"4bf58dd8d48988d16d941735","name":"Café","pluralName":"Cafés","shortName":"Café","icon":{"prefix":"https:\/\/ss3.4sqi.net\/img\/categories_v2\/food\/cafe_","suffix":".png"},"primary":true}],"photos":{"count":0,"groups":[]}},"referralId":"e-5-4b6820adf964a52050682be3-1"},{"reasons":{"count":0,"items":[{"summary":"This spot is popular","type":"general","reasonName":"globalInteractionReason"}]},"venue":{"id":"5126359fe4b0a59820a23d28","name":"Small Batch Coffee","location":{"address":"108a Dyke Rd","lat":50.83108218656345,"lng":-0.14750921523435806,"labeledLatLngs":[{"label":"display","lat":50.83108218656345,"lng":-0.14750921523435806}],"distance":645,"postalCode":"BN1 3TE","cc":"GB","city":"Brighton","state":"East Sussex","country":"United Kingdom","formattedAddress":["108a Dyke Rd","Brighton","East Sussex","BN1 3TE","United Kingdom"]},"categories":[{"id":"4bf58dd8d48988d1e0931735","name":"Coffee Shop","pluralName":"Coffee Shops","shortName":"Coffee Shop","icon":{"prefix":"https:\/\/ss3.4sqi.net\/img\/categories_v2\/food\/coffeeshop_","suffix":".png"},"primary":true}],"photos":{"count":0,"groups":[]}},"referralId":"e-5-5126359fe4b0a59820a23d28-2"},{"reasons":{"count":0,"items":[{"summary":"This spot is popular","type":"general","reasonName":"globalInteractionReason"}]},"venue":{"id":"52d3e3b6498ed9d7f89d7e83","name":"Sunbirds Deli","location":{"address":"108 London Road","lat":50.831397719352736,"lng":-0.13643906187228005,"labeledLatLngs":[{"label":"display","lat":50.831397719352736,"lng":-0.13643906187228005}],"distance":1074,"postalCode":"BN1 4JG","cc":"GB","city":"Brighton","state":"East Sussex","country":"United Kingdom","formattedAddress":["108 London Road","Brighton","East Sussex","BN1 4JG","United Kingdom"]},"categories":[{"id":"4bf58dd8d48988d16d941735","name":"Café","pluralName":"Cafés","shortName":"Café","icon":{"prefix":"https:\/\/ss3.4sqi.net\/img\/categories_v2\/food\/cafe_","suffix":".png"},"primary":true}],"photos":{"count":0,"groups":[]}},"referralId":"e-5-52d3e3b6498ed9d7f89d7e83-3"},{"reasons":{"count":0,"items":[{"summary":"This spot is popular","type":"general","reasonName":"globalInteractionReason"}]},"venue":{"id":"4af3dfb6f964a52085ef21e3","name":"Coffee@33","location":{"address":"33 Trafalgar St","lat":50.828399755050995,"lng":-0.1388240223548694,"labeledLatLngs":[{"label":"display","lat":50.828399755050995,"lng":-0.1388240223548694}],"distance":1181,"postalCode":"BN1 4ED","cc":"GB","city":"Brighton","state":"East Sussex","country":"United Kingdom","formattedAddress":["33 Trafalgar St","Brighton","East Sussex","BN1 4ED","United Kingdom"]},"categories":[{"id":"4bf58dd8d48988d1e0931735","name":"Coffee Shop","pluralName":"Coffee Shops","shortName":"Coffee Shop","icon":{"prefix":"https:\/\/ss3.4sqi.net\/img\/categories_v2\/food\/coffeeshop_","suffix":".png"},"primary":true}],"photos":{"count":0,"groups":[]}},"referralId":"e-5-4af3dfb6f964a52085ef21e3-4"},{"reasons":{"count":0,"items":[{"summary":"This spot is popular","type":"general","reasonName":"globalInteractionReason"}]},"venue":{"id":"54aa90c9498ea948a4705710","name":"Pelicano","location":{"address":"Sydney St","lat":50.82781960645115,"lng":-0.1376552746291987,"labeledLatLngs":[{"label":"display","lat":50.82781960645115,"lng":-0.1376552746291987}],"distance":1283,"postalCode":"BN1 4EP","cc":"GB","neighborhood":"North Laine","city":"Brighton","state":"East Sussex","country":"United Kingdom","formattedAddress":["Sydney St","Brighton","East Sussex","BN1 4EP","United Kingdom"]},"categories":[{"id":"4bf58dd8d48988d1e0931735","name":"Coffee Shop","pluralName":"Coffee Shops","shortName":"Coffee Shop","icon":{"prefix":"https:\/\/ss3.4sqi.net\/img\/categories_v2\/food\/coffeeshop_","suffix":".png"},"primary":true}],"photos":{"count":0,"groups":[]}},"referralId":"e-5-54aa90c9498ea948a4705710-5"},{"reasons":{"count":0,"items":[{"summary":"This spot is popular","type":"general","reasonName":"globalInteractionReason"}]},"venue":{"id":"51374242e4b0a1aee41169e4","name":"Milk No Sugar","location":{"address":"68 Trafalgar St","lat":50.82846780463809,"lng":-0.13962254272160407,"labeledLatLngs":[{"label":"display","lat":50.82846780463809,"lng":-0.13962254272160407}],"distance":1141,"postalCode":"BN1 4EB","cc":"GB","city":"Brighton","state":"East Sussex","country":"United Kingdom","formattedAddress":["68 Trafalgar St","Brighton","East Sussex","BN1 4EB","United Kingdom"]},"categories":[{"id":"4bf58dd8d48988d1e0931735","name":"Coffee Shop","pluralName":"Coffee Shops","shortName":"Coffee Shop","icon":{"prefix":"https:\/\/ss3.4sqi.net\/img\/categories_v2\/food\/coffeeshop_","suffix":".png"},"primary":true}],"photos":{"count":0,"groups":[]}},"referralId":"e-5-51374242e4b0a1aee41169e4-6"},{"reasons":{"count":0,"items":[{"summary":"This spot is popular","type":"general","reasonName":"globalInteractionReason"}]},"venue":{"id":"5d305a968b4b4100088fdbde","name":"Baker Street Coffee","location":{"address":"23B Baker St","crossStreet":"Ditchling Rd","lat":50.831939,"lng":-0.134546,"labeledLatLngs":[{"label":"display","lat":50.831939,"lng":-0.134546}],"distance":1158,"postalCode":"BN1 4JN","cc":"GB","city":"Brighton","state":"East Sussex","country":"United Kingdom","formattedAddress":["23B Baker St (Ditchling Rd)","Brighton","East Sussex","BN1 4JN","United Kingdom"]},"categories":[{"id":"4bf58dd8d48988d1e0931735","name":"Coffee Shop","pluralName":"Coffee Shops","shortName":"Coffee Shop","icon":{"prefix":"https:\/\/ss3.4sqi.net\/img\/categories_v2\/food\/coffeeshop_","suffix":".png"},"primary":true}],"photos":{"count":0,"groups":[]}},"referralId":"e-5-5d305a968b4b4100088fdbde-7"},{"reasons":{"count":0,"items":[{"summary":"This spot is popular","type":"general","reasonName":"globalInteractionReason"}]},"venue":{"id":"4d83267cd5fab60c07f7c59b","name":"Small Batch Coffee Company","location":{"address":"Kiosk on wheels, outside Brighton Stn.","crossStreet":"Trafalgar St.","lat":50.82874476857533,"lng":-0.14127454676600654,"labeledLatLngs":[{"label":"display","lat":50.82874476857533,"lng":-0.14127454676600654}],"distance":1051,"postalCode":"BN1","cc":"GB","city":"Brighton","state":"East Sussex","country":"United Kingdom","formattedAddress":["Kiosk on wheels, outside Brighton Stn. (Trafalgar St.)","Brighton","East Sussex"," BN1","United Kingdom"]},"categories":[{"id":"4bf58dd8d48988d1e0931735","name":"Coffee Shop","pluralName":"Coffee Shops","shortName":"Coffee Shop","icon":{"prefix":"https:\/\/ss3.4sqi.net\/img\/categories_v2\/food\/coffeeshop_","suffix":".png"},"primary":true}],"photos":{"count":0,"groups":[]}},"referralId":"e-5-4d83267cd5fab60c07f7c59b-8"},{"reasons":{"count":0,"items":[{"summary":"This spot is popular","type":"general","reasonName":"globalInteractionReason"}]},"venue":{"id":"56387e56cd10068461fc778d","name":"Pharmacie","location":{"address":"18 Cambridge Grove","lat":50.83371993432041,"lng":-0.16562359806314123,"labeledLatLngs":[{"label":"display","lat":50.83371993432041,"lng":-0.16562359806314123}],"distance":1209,"postalCode":"BN3 3ED","cc":"GB","city":"Hove","state":"East Sussex","country":"United Kingdom","formattedAddress":["18 Cambridge Grove","Hove","East Sussex","BN3 3ED","United Kingdom"]},"categories":[{"id":"4bf58dd8d48988d1e0931735","name":"Coffee Shop","pluralName":"Coffee Shops","shortName":"Coffee Shop","icon":{"prefix":"https:\/\/ss3.4sqi.net\/img\/categories_v2\/food\/coffeeshop_","suffix":".png"},"primary":true}],"photos":{"count":0,"groups":[]}},"referralId":"e-5-56387e56cd10068461fc778d-9"},{"reasons":{"count":0,"items":[{"summary":"This spot is popular","type":"general","reasonName":"globalInteractionReason"}]},"venue":{"id":"54958efd498eff4bb4570fee","name":"Presuming Ed","location":{"address":"114-115 London Rd","lat":50.830935045949616,"lng":-0.13616783674258168,"labeledLatLngs":[{"label":"display","lat":50.830935045949616,"lng":-0.13616783674258168}],"distance":1119,"postalCode":"BN1 4LJ","cc":"GB","neighborhood":"London Road","city":"Brighton","state":"East Sussex","country":"United Kingdom","formattedAddress":["114-115 London Rd","Brighton","East Sussex","BN1 4LJ","United Kingdom"]},"categories":[{"id":"4bf58dd8d48988d16d941735","name":"Café","pluralName":"Cafés","shortName":"Café","icon":{"prefix":"https:\/\/ss3.4sqi.net\/img\/categories_v2\/food\/cafe_","suffix":".png"},"primary":true}],"photos":{"count":0,"groups":[]}},"referralId":"e-5-54958efd498eff4bb4570fee-10"},{"reasons":{"count":0,"items":[{"summary":"This spot is popular","type":"general","reasonName":"globalInteractionReason"}]},"venue":{"id":"539eae29498e79c67479c9d0","name":"The Flour Pot","location":{"address":"40 Sydney St","lat":50.82728040206569,"lng":-0.13785764714385165,"labeledLatLngs":[{"label":"display","lat":50.82728040206569,"lng":-0.13785764714385165}],"distance":1321,"postalCode":"BN1 4EP","cc":"GB","city":"North Laine","state":"East Sussex","country":"United Kingdom","formattedAddress":["40 Sydney St","North Laine","East Sussex","BN1 4EP","United Kingdom"]},"categories":[{"id":"4bf58dd8d48988d16a941735","name":"Bakery","pluralName":"Bakeries","shortName":"Bakery","icon":{"prefix":"https:\/\/ss3.4sqi.net\/img\/categories_v2\/food\/bakery_","suffix":".png"},"primary":true}],"photos":{"count":0,"groups":[]}},"referralId":"e-5-539eae29498e79c67479c9d0-11"},{"reasons":{"count":0,"items":[{"summary":"This spot is popular","type":"general","reasonName":"globalInteractionReason"}]},"venue":{"id":"53c63bee498e118a69918813","name":"Nowhere Man","location":{"address":"53 Upper N St","lat":50.8255297915614,"lng":-0.14886199823510846,"labeledLatLngs":[{"label":"display","lat":50.8255297915614,"lng":-0.14886199823510846}],"distance":1253,"postalCode":"BN1 3FH","cc":"GB","city":"Brighton","state":"East Sussex","country":"United Kingdom","formattedAddress":["53 Upper N St","Brighton","East Sussex","BN1 3FH","United Kingdom"]},"categories":[{"id":"4bf58dd8d48988d1e0931735","name":"Coffee Shop","pluralName":"Coffee Shops","shortName":"Coffee Shop","icon":{"prefix":"https:\/\/ss3.4sqi.net\/img\/categories_v2\/food\/coffeeshop_","suffix":".png"},"primary":true}],"photos":{"count":0,"groups":[]}},"referralId":"e-5-53c63bee498e118a69918813-12"},{"reasons":{"count":0,"items":[{"summary":"This spot is popular","type":"general","reasonName":"globalInteractionReason"}]},"venue":{"id":"56b0bb22498ea7ae46299d97","name":"Black Mocha","location":{"address":"103 Gloucester Rd","lat":50.82692578497938,"lng":-0.13852721088696984,"labeledLatLngs":[{"label":"display","lat":50.82692578497938,"lng":-0.13852721088696984}],"distance":1326,"postalCode":"BN1 4AP","cc":"GB","city":"Brighton","state":"East Sussex","country":"United Kingdom","formattedAddress":["103 Gloucester Rd","Brighton","East Sussex","BN1 4AP","United Kingdom"]},"categories":[{"id":"4bf58dd8d48988d16d941735","name":"Café","pluralName":"Cafés","shortName":"Café","icon":{"prefix":"https:\/\/ss3.4sqi.net\/img\/categories_v2\/food\/cafe_","suffix":".png"},"primary":true}],"photos":{"count":0,"groups":[]}},"referralId":"e-5-56b0bb22498ea7ae46299d97-13"},{"reasons":{"count":0,"items":[{"summary":"This spot is popular","type":"general","reasonName":"globalInteractionReason"}]},"venue":{"id":"5221e28d11d2da59a2d34307","name":"Small Batch Coffee Company","location":{"address":"111 Western Rd","crossStreet":"Norfolk Sq","lat":50.82514627232451,"lng":-0.15486253850410955,"labeledLatLngs":[{"label":"display","lat":50.82514627232451,"lng":-0.15486253850410955}],"distance":1357,"postalCode":"BN1 2AA","cc":"GB","city":"Brighton","state":"East Sussex","country":"United Kingdom","formattedAddress":["111 Western Rd (Norfolk Sq)","Brighton","East Sussex","BN1 2AA","United Kingdom"]},"categories":[{"id":"4bf58dd8d48988d1e0931735","name":"Coffee Shop","pluralName":"Coffee Shops","shortName":"Coffee Shop","icon":{"prefix":"https:\/\/ss3.4sqi.net\/img\/categories_v2\/food\/coffeeshop_","suffix":".png"},"primary":true}],"photos":{"count":0,"groups":[]}},"referralId":"e-5-5221e28d11d2da59a2d34307-14"},{"reasons":{"count":0,"items":[{"summary":"This spot is popular","type":"general","reasonName":"globalInteractionReason"}]},"venue":{"id":"5c5d57b2cabcff002c67c993","name":"Pelicano","location":{"address":"St Peters Pl","lat":50.82931,"lng":-0.133912,"labeledLatLngs":[{"label":"display","lat":50.82931,"lng":-0.133912}],"distance":1355,"postalCode":"BN1 4SA","cc":"GB","city":"Brighton","state":"East Sussex","country":"United Kingdom","formattedAddress":["St Peters Pl","Brighton","East Sussex","BN1 4SA","United Kingdom"]},"categories":[{"id":"4bf58dd8d48988d1e0931735","name":"Coffee Shop","pluralName":"Coffee Shops","shortName":"Coffee Shop","icon":{"prefix":"https:\/\/ss3.4sqi.net\/img\/categories_v2\/food\/coffeeshop_","suffix":".png"},"primary":true}],"photos":{"count":0,"groups":[]}},"referralId":"e-5-5c5d57b2cabcff002c67c993-15"},{"reasons":{"count":0,"items":[{"summary":"This spot is popular","type":"general","reasonName":"globalInteractionReason"}]},"venue":{"id":"4b845eb5f964a5204e3131e3","name":"Red Snapper","location":{"address":"90 Dyke Rd","lat":50.830409208539855,"lng":-0.14726342894179353,"labeledLatLngs":[{"label":"display","lat":50.830409208539855,"lng":-0.14726342894179353}],"distance":722,"postalCode":"BN1 3JD","cc":"GB","city":"Brighton","state":"East Sussex","country":"United Kingdom","formattedAddress":["90 Dyke Rd","Brighton","East Sussex","BN1 3JD","United Kingdom"]},"categories":[{"id":"4bf58dd8d48988d149941735","name":"Thai Restaurant","pluralName":"Thai Restaurants","shortName":"Thai","icon":{"prefix":"https:\/\/ss3.4sqi.net\/img\/categories_v2\/food\/thai_","suffix":".png"},"primary":true}],"photos":{"count":0,"groups":[]}},"referralId":"e-5-4b845eb5f964a5204e3131e3-16"},{"reasons":{"count":0,"items":[{"summary":"This spot is popular","type":"general","reasonName":"globalInteractionReason"}]},"venue":{"id":"4f82ecd4e4b0e533aea88ef0","name":"Talk Of Tea","location":{"address":"26 Spring St","lat":50.82488068684092,"lng":-0.14944123302404214,"labeledLatLngs":[{"label":"display","lat":50.82488068684092,"lng":-0.14944123302404214}],"distance":1325,"postalCode":"BN1 3EF","cc":"GB","city":"Brighton","state":"East Sussex","country":"United Kingdom","formattedAddress":["26 Spring St","Brighton","East Sussex","BN1 3EF","United Kingdom"]},"categories":[{"id":"4bf58dd8d48988d1dc931735","name":"Tea Room","pluralName":"Tea Rooms","shortName":"Tea Room","icon":{"prefix":"https:\/\/ss3.4sqi.net\/img\/categories_v2\/food\/tearoom_","suffix":".png"},"primary":true}],"photos":{"count":0,"groups":[]}},"referralId":"e-5-4f82ecd4e4b0e533aea88ef0-17"},{"reasons":{"count":0,"items":[{"summary":"This spot is popular","type":"general","reasonName":"globalInteractionReason"}]},"venue":{"id":"50642931e4b0c3cdacaf8771","name":"Cafe Coho","location":{"address":"83a Queens Rd","lat":50.828182427034925,"lng":-0.1413457624812883,"labeledLatLngs":[{"label":"display","lat":50.828182427034925,"lng":-0.1413457624812883}],"distance":1103,"postalCode":"BN1 3XE","cc":"GB","city":"Brighton","state":"East Sussex","country":"United Kingdom","formattedAddress":["83a Queens Rd","Brighton","East Sussex","BN1 3XE","United Kingdom"]},"categories":[{"id":"4bf58dd8d48988d16d941735","name":"Café","pluralName":"Cafés","shortName":"Café","icon":{"prefix":"https:\/\/ss3.4sqi.net\/img\/categories_v2\/food\/cafe_","suffix":".png"},"primary":true}],"photos":{"count":0,"groups":[]}},"referralId":"e-5-50642931e4b0c3cdacaf8771-18"},{"reasons":{"count":0,"items":[{"summary":"This spot is popular","type":"general","reasonName":"globalInteractionReason"}]},"venue":{"id":"4b41a127f964a520f1c725e3","name":"Small Batch Coffee Company","location":{"address":"70 Goldstone Villas","lat":50.83392275120967,"lng":-0.171435189520691,"labeledLatLngs":[{"label":"display","lat":50.83392275120967,"lng":-0.171435189520691}],"distance":1600,"postalCode":"BN3 3RU","cc":"GB","city":"Hove","state":"East Sussex","country":"United Kingdom","formattedAddress":["70 Goldstone Villas","Hove","East Sussex","BN3 3RU","United Kingdom"]},"categories":[{"id":"4bf58dd8d48988d1e0931735","name":"Coffee Shop","pluralName":"Coffee Shops","shortName":"Coffee Shop","icon":{"prefix":"https:\/\/ss3.4sqi.net\/img\/categories_v2\/food\/coffeeshop_","suffix":".png"},"primary":true}],"photos":{"count":0,"groups":[]},"venuePage":{"id":"68054350"}},"referralId":"e-5-4b41a127f964a520f1c725e3-19"},{"reasons":{"count":0,"items":[{"summary":"This spot is popular","type":"general","reasonName":"globalInteractionReason"}]},"venue":{"id":"4b18dad9f964a5202dd623e3","name":"Billie's","location":{"address":"34 Hampton Pl","lat":50.825707,"lng":-0.150173,"labeledLatLngs":[{"label":"display","lat":50.825707,"lng":-0.150173}],"distance":1235,"postalCode":"BN1 3DD","cc":"GB","city":"Brighton","state":"East Sussex","country":"United Kingdom","formattedAddress":["34 Hampton Pl","Brighton","East Sussex","BN1 3DD","United Kingdom"]},"categories":[{"id":"4bf58dd8d48988d143941735","name":"Breakfast Spot","pluralName":"Breakfast Spots","shortName":"Breakfast","icon":{"prefix":"https:\/\/ss3.4sqi.net\/img\/categories_v2\/food\/breakfast_","suffix":".png"},"primary":true}],"photos":{"count":0,"groups":[]}},"referralId":"e-5-4b18dad9f964a5202dd623e3-20"},{"reasons":{"count":0,"items":[{"summary":"This spot is popular","type":"general","reasonName":"globalInteractionReason"}]},"venue":{"id":"54282ebc498e2d89dfdd6abf","name":"Bond Street Coffee","location":{"address":"15 Bond St","lat":50.82398557514785,"lng":-0.14007500677038914,"labeledLatLngs":[{"label":"display","lat":50.82398557514785,"lng":-0.14007500677038914}],"distance":1560,"postalCode":"BN1 1RD","cc":"GB","city":"Brighton","state":"East Sussex","country":"United Kingdom","formattedAddress":["15 Bond St","Brighton","East Sussex","BN1 1RD","United Kingdom"]},"categories":[{"id":"4bf58dd8d48988d1e0931735","name":"Coffee Shop","pluralName":"Coffee Shops","shortName":"Coffee Shop","icon":{"prefix":"https:\/\/ss3.4sqi.net\/img\/categories_v2\/food\/coffeeshop_","suffix":".png"},"primary":true}],"photos":{"count":0,"groups":[]}},"referralId":"e-5-54282ebc498e2d89dfdd6abf-21"},{"reasons":{"count":0,"items":[{"summary":"This spot is popular","type":"general","reasonName":"globalInteractionReason"}]},"venue":{"id":"544e2dfd498ece3f8d1c5ac3","name":"Kouzina","location":{"address":"The Open Market","crossStreet":"London Road","lat":50.83144961738971,"lng":-0.13549440369106314,"labeledLatLngs":[{"label":"display","lat":50.83144961738971,"lng":-0.13549440369106314}],"distance":1127,"postalCode":"BN1 6NA","cc":"GB","city":"East Sussex","state":"East Sussex","country":"United Kingdom","formattedAddress":["The Open Market (London Road)","East Sussex","BN1 6NA","United Kingdom"]},"categories":[{"id":"4bf58dd8d48988d16d941735","name":"Café","pluralName":"Cafés","shortName":"Café","icon":{"prefix":"https:\/\/ss3.4sqi.net\/img\/categories_v2\/food\/cafe_","suffix":".png"},"primary":true}],"photos":{"count":0,"groups":[]}},"referralId":"e-5-544e2dfd498ece3f8d1c5ac3-22"},{"reasons":{"count":0,"items":[{"summary":"This spot is popular","type":"general","reasonName":"globalInteractionReason"}]},"venue":{"id":"4eb78b716da1df9ffb5ff44a","name":"Small Batch Coffee Company","location":{"address":"17 Jubilee St","crossStreet":"btwn Church & North","lat":50.824414056787475,"lng":-0.13887472760216382,"labeledLatLngs":[{"label":"display","lat":50.824414056787475,"lng":-0.13887472760216382}],"distance":1554,"postalCode":"BN1 1GE","cc":"GB","city":"Brighton","state":"East Sussex","country":"United Kingdom","formattedAddress":["17 Jubilee St (btwn Church & North)","Brighton","East Sussex","BN1 1GE","United Kingdom"]},"categories":[{"id":"4bf58dd8d48988d1e0931735","name":"Coffee Shop","pluralName":"Coffee Shops","shortName":"Coffee Shop","icon":{"prefix":"https:\/\/ss3.4sqi.net\/img\/categories_v2\/food\/coffeeshop_","suffix":".png"},"primary":true}],"photos":{"count":0,"groups":[]}},"referralId":"e-5-4eb78b716da1df9ffb5ff44a-23"},{"reasons":{"count":0,"items":[{"summary":"This spot is popular","type":"general","reasonName":"globalInteractionReason"}]},"venue":{"id":"4b7e8a45f964a520c6f12fe3","name":"Iydea Cafe","location":{"address":"17 Kensington Gdns","lat":50.82673773226345,"lng":-0.1383989531884619,"labeledLatLngs":[{"label":"display","lat":50.82673773226345,"lng":-0.1383989531884619}],"distance":1349,"postalCode":"BN1 4AL","cc":"GB","city":"Brighton","state":"East Sussex","country":"United Kingdom","formattedAddress":["17 Kensington Gdns","Brighton","East Sussex","BN1 4AL","United Kingdom"]},"categories":[{"id":"4bf58dd8d48988d16d941735","name":"Café","pluralName":"Cafés","shortName":"Café","icon":{"prefix":"https:\/\/ss3.4sqi.net\/img\/categories_v2\/food\/cafe_","suffix":".png"},"primary":true}],"photos":{"count":0,"groups":[]}},"referralId":"e-5-4b7e8a45f964a520c6f12fe3-24"},{"reasons":{"count":0,"items":[{"summary":"This spot is popular","type":"general","reasonName":"globalInteractionReason"}]},"venue":{"id":"544246c0498eaaa9f10feaa4","name":"V & H","location":{"address":"63B Holland Rd","lat":50.8266577599809,"lng":-0.16194522549892867,"labeledLatLngs":[{"label":"display","lat":50.8266577599809,"lng":-0.16194522549892867}],"distance":1443,"postalCode":"BN3 1BA","cc":"GB","city":"Hove","state":"East Sussex","country":"United Kingdom","formattedAddress":["63B Holland Rd","Hove","East Sussex","BN3 1BA","United Kingdom"]},"categories":[{"id":"4bf58dd8d48988d16d941735","name":"Café","pluralName":"Cafés","shortName":"Café","icon":{"prefix":"https:\/\/ss3.4sqi.net\/img\/categories_v2\/food\/cafe_","suffix":".png"},"primary":true}],"photos":{"count":0,"groups":[]}},"referralId":"e-5-544246c0498eaaa9f10feaa4-25"},{"reasons":{"count":0,"items":[{"summary":"This spot is popular","type":"general","reasonName":"globalInteractionReason"}]},"venue":{"id":"4c249af0136d20a1e706e261","name":"Ben's Cookies","location":{"address":"10 Duke St","crossStreet":"The Lanes","lat":50.82280666726135,"lng":-0.14284218381801206,"labeledLatLngs":[{"label":"display","lat":50.82280666726135,"lng":-0.14284218381801206}],"distance":1617,"postalCode":"BN1 1AH","cc":"GB","city":"Brighton","state":"East Sussex","country":"United Kingdom","formattedAddress":["10 Duke St (The Lanes)","Brighton","East Sussex","BN1 1AH","United Kingdom"]},"categories":[{"id":"4bf58dd8d48988d1e0931735","name":"Coffee Shop","pluralName":"Coffee Shops","shortName":"Coffee Shop","icon":{"prefix":"https:\/\/ss3.4sqi.net\/img\/categories_v2\/food\/coffeeshop_","suffix":".png"},"primary":true}],"photos":{"count":0,"groups":[]}},"referralId":"e-5-4c249af0136d20a1e706e261-26"},{"reasons":{"count":0,"items":[{"summary":"This spot is popular","type":"general","reasonName":"globalInteractionReason"}]},"venue":{"id":"57aa1bddcd10bf79acd9f388","name":"Wafflemeister","location":{"address":"49 West St","lat":50.823255387438095,"lng":-0.1437354211752066,"labeledLatLngs":[{"label":"display","lat":50.823255387438095,"lng":-0.1437354211752066}],"distance":1553,"postalCode":"BN1 2RA","cc":"GB","city":"Brighton","state":"East Sussex","country":"United Kingdom","formattedAddress":["49 West St","Brighton","East Sussex","BN1 2RA","United Kingdom"]},"categories":[{"id":"4bf58dd8d48988d16d941735","name":"Café","pluralName":"Cafés","shortName":"Café","icon":{"prefix":"https:\/\/ss3.4sqi.net\/img\/categories_v2\/food\/cafe_","suffix":".png"},"primary":true}],"photos":{"count":0,"groups":[]}},"referralId":"e-5-57aa1bddcd10bf79acd9f388-27"},{"reasons":{"count":0,"items":[{"summary":"This spot is popular","type":"general","reasonName":"globalInteractionReason"}]},"venue":{"id":"5735ca7c498e269c787bdd9f","name":"Larder","location":{"address":"53 Gardner Street","lat":50.82469143480419,"lng":-0.13963580131530762,"labeledLatLngs":[{"label":"display","lat":50.82469143480419,"lng":-0.13963580131530762}],"distance":1502,"cc":"GB","city":"Brighton","state":"East Sussex","country":"United Kingdom","formattedAddress":["53 Gardner Street","Brighton","East Sussex","United Kingdom"]},"categories":[{"id":"4bf58dd8d48988d16d941735","name":"Café","pluralName":"Cafés","shortName":"Café","icon":{"prefix":"https:\/\/ss3.4sqi.net\/img\/categories_v2\/food\/cafe_","suffix":".png"},"primary":true}],"photos":{"count":0,"groups":[]}},"referralId":"e-5-5735ca7c498e269c787bdd9f-28"},{"reasons":{"count":0,"items":[{"summary":"This spot is popular","type":"general","reasonName":"globalInteractionReason"}]},"venue":{"id":"4b058845f964a52047bb22e3","name":"The Dorset","location":{"address":"28 North Rd","lat":50.82561328598538,"lng":-0.13923105863555046,"labeledLatLngs":[{"label":"display","lat":50.82561328598538,"lng":-0.13923105863555046}],"distance":1425,"postalCode":"BN1 1YB","cc":"GB","city":"Brighton","state":"East Sussex","country":"United Kingdom","formattedAddress":["28 North Rd","Brighton","East Sussex","BN1 1YB","United Kingdom"]},"categories":[{"id":"4bf58dd8d48988d16d941735","name":"Café","pluralName":"Cafés","shortName":"Café","icon":{"prefix":"https:\/\/ss3.4sqi.net\/img\/categories_v2\/food\/cafe_","suffix":".png"},"primary":true}],"photos":{"count":0,"groups":[]}},"referralId":"e-5-4b058845f964a52047bb22e3-29"}]}]}}